{
"type": "FeatureCollection",
"name": "MiningTrans",
"crs": { "type": "name", "properties": { "name": "urn:ogc:def:crs:OGC:1.3:CRS84" } },
"features": [
{ "type": "Feature", "properties": { "fid": 1, "ID": 0, "Name": "F.H. Bertling Logistics LDA", "Sector": "Transportation", "Industry": "Oversea Logistics", "Longitude": -16.128711, "Latitude": 33.617487, "Nationality": "German", "Net Profit_Estimated": 1000000000, "Net Profit": 5653000000 }, "geometry": { "type": "Point", "coordinates": [ 33.617487, -16.128711 ] } },
{ "type": "Feature", "properties": { "fid": 2, "ID": 1, "Name": "F.H. Bertling Logistics LDA", "Sector": "Transportation", "Industry": "Oversea Logistics", "Longitude": -25.959009, "Latitude": 32.487143, "Nationality": "German", "Net Profit_Estimated": 1000000000, "Net Profit": 5653000000 }, "geometry": { "type": "Point", "coordinates": [ 32.487143, -25.959009 ] } },
{ "type": "Feature", "properties": { "fid": 3, "ID": 2, "Name": "Louis Dreyfus Armateurs", "Sector": "Transportation", "Industry": "Oversea Logistics", "Longitude": -19.829942, "Latitude": 34.837872, "Nationality": "France", "Net Profit_Estimated": 10000000, "Net Profit": 20940000 }, "geometry": { "type": "Point", "coordinates": [ 34.837872, -19.829942 ] } },
{ "type": "Feature", "properties": { "fid": 4, "ID": 3, "Name": "Sharf Shipping Agency", "Sector": "Transportation", "Industry": "Oversea Logistics", "Longitude": -19.830138, "Latitude": 34.833862, "Nationality": "United Arab Emirates", "Net Profit_Estimated": 100000, "Net Profit": 460000 }, "geometry": { "type": "Point", "coordinates": [ 34.833862, -19.830138 ] } },
{ "type": "Feature", "properties": { "fid": 5, "ID": 4, "Name": "Linhas Aéreas de Moçambique", "Sector": "Transportation", "Industry": "Oversea Logistics", "Longitude": -13.300111, "Latitude": 35.246714, "Nationality": "Mozambique", "Net Profit_Estimated": 1000000, "Net Profit": 5830000 }, "geometry": { "type": "Point", "coordinates": [ 35.246714, -13.300111 ] } },
{ "type": "Feature", "properties": { "fid": 6, "ID": 5, "Name": "Linhas Aéreas de Moçambique", "Sector": "Transportation", "Industry": "Oversea Logistics", "Longitude": -19.835062, "Latitude": 34.838998, "Nationality": "Mozambique", "Net Profit_Estimated": 1000000, "Net Profit": 5830000 }, "geometry": { "type": "Point", "coordinates": [ 34.838998, -19.835062 ] } },
{ "type": "Feature", "properties": { "fid": 7, "ID": 6, "Name": "Linhas Aéreas de Moçambique", "Sector": "Transportation", "Industry": "Oversea Logistics", "Longitude": -25.963046, "Latitude": 32.45736, "Nationality": "Mozambique", "Net Profit_Estimated": 1000000, "Net Profit": 5830000 }, "geometry": { "type": "Point", "coordinates": [ 32.45736, -25.963046 ] } },
{ "type": "Feature", "properties": { "fid": 8, "ID": 7, "Name": "DHL", "Sector": "Transportation", "Industry": "Oversea Logistics", "Longitude": -19.828549, "Latitude": 34.834748, "Nationality": "USA", "Net Profit_Estimated": 1000000000, "Net Profit": 5653000000 }, "geometry": { "type": "Point", "coordinates": [ 34.834748, -19.828549 ] } },
{ "type": "Feature", "properties": { "fid": 9, "ID": 8, "Name": "DHL", "Sector": "Transportation", "Industry": "Oversea Logistics", "Longitude": -25.958141, "Latitude": 32.560899, "Nationality": "USA", "Net Profit_Estimated": 1000000000, "Net Profit": 5653000000 }, "geometry": { "type": "Point", "coordinates": [ 32.560899, -25.958141 ] } },
{ "type": "Feature", "properties": { "fid": 10, "ID": 9, "Name": "CPMZ Pipeline", "Sector": "Transportation", "Industry": "Oversea Logistics", "Longitude": -19.847394, "Latitude": 34.886069, "Nationality": "South Africa", "Net Profit_Estimated": 1000000, "Net Profit": null }, "geometry": { "type": "Point", "coordinates": [ 34.886069, -19.847394 ] } },
{ "type": "Feature", "properties": { "fid": 11, "ID": 10, "Name": "Mediterranean Shipping Company", "Sector": "Transportation", "Industry": "Oversea Logistics", "Longitude": -19.829193, "Latitude": 34.834785, "Nationality": "Switzerland", "Net Profit_Estimated": 1000000000, "Net Profit": 2817400000 }, "geometry": { "type": "Point", "coordinates": [ 34.834785, -19.829193 ] } },
{ "type": "Feature", "properties": { "fid": 12, "ID": 11, "Name": "Mediterranean Shipping Company", "Sector": "Transportation", "Industry": "Oversea Logistics", "Longitude": -14.543229, "Latitude": 40.669963, "Nationality": "South Africa", "Net Profit_Estimated": 1000000000, "Net Profit": 2817400000 }, "geometry": { "type": "Point", "coordinates": [ 40.669963, -14.543229 ] } },
{ "type": "Feature", "properties": { "fid": 13, "ID": 12, "Name": "AMI Africa Mozambique", "Sector": "Transportation", "Industry": "Oversea Logistics", "Longitude": -19.838357, "Latitude": 34.839719, "Nationality": "South Africa", "Net Profit_Estimated": 100000, "Net Profit": 870000 }, "geometry": { "type": "Point", "coordinates": [ 34.839719, -19.838357 ] } },
{ "type": "Feature", "properties": { "fid": 14, "ID": 14, "Name": "Transcom Sharaf Logistica", "Sector": "Transportation", "Industry": "Oversea Logistics", "Longitude": -19.774486, "Latitude": 34.865525, "Nationality": "Mozambique", "Net Profit_Estimated": 10000000, "Net Profit": 45750000 }, "geometry": { "type": "Point", "coordinates": [ 34.865525, -19.774486 ] } },
{ "type": "Feature", "properties": { "fid": 15, "ID": 15, "Name": "Trasportes Lalgy", "Sector": "Transportation", "Industry": "Oversea Logistics", "Longitude": -19.810142, "Latitude": 34.849014, "Nationality": "Mozambique", "Net Profit_Estimated": 1000000, "Net Profit": 1660000 }, "geometry": { "type": "Point", "coordinates": [ 34.849014, -19.810142 ] } },
{ "type": "Feature", "properties": { "fid": 16, "ID": 16, "Name": "Trasportes Lalgy", "Sector": "Transportation", "Industry": "Oversea Logistics", "Longitude": -25.867621, "Latitude": 32.433485, "Nationality": "Mozambique", "Net Profit_Estimated": 1000000, "Net Profit": 1660000 }, "geometry": { "type": "Point", "coordinates": [ 32.433485, -25.867621 ] } },
{ "type": "Feature", "properties": { "fid": 17, "ID": 17, "Name": "Trasportes Lalgy", "Sector": "Transportation", "Industry": "Oversea Logistics", "Longitude": -25.951021, "Latitude": 32.475711, "Nationality": "Mozambique", "Net Profit_Estimated": 1000000, "Net Profit": 1660000 }, "geometry": { "type": "Point", "coordinates": [ 32.475711, -25.951021 ] } },
{ "type": "Feature", "properties": { "fid": 18, "ID": 18, "Name": "Chimachi Servicos Lda", "Sector": "Transportation", "Industry": "Logistics", "Longitude": -19.822515, "Latitude": 34.835644, "Nationality": "Mozambique", "Net Profit_Estimated": 10000, "Net Profit": null }, "geometry": { "type": "Point", "coordinates": [ 34.835644, -19.822515 ] } },
{ "type": "Feature", "properties": { "fid": 19, "ID": 19, "Name": "TPB", "Sector": "Transportation", "Industry": "Logistics", "Longitude": -19.832716, "Latitude": 34.864967, "Nationality": "Mozambique", "Net Profit_Estimated": 10000, "Net Profit": null }, "geometry": { "type": "Point", "coordinates": [ 34.864967, -19.832716 ] } },
{ "type": "Feature", "properties": { "fid": 20, "ID": 20, "Name": "Correios De Mocambique", "Sector": "Transportation", "Industry": "Logistics", "Longitude": -14.908001, "Latitude": 40.295912, "Nationality": "Mozambique", "Net Profit_Estimated": 10000000, "Net Profit": null }, "geometry": { "type": "Point", "coordinates": [ 40.295912, -14.908001 ] } },
{ "type": "Feature", "properties": { "fid": 21, "ID": 21, "Name": "Correios De Mocambique", "Sector": "Transportation", "Industry": "Logistics", "Longitude": -14.669459, "Latitude": 39.28052, "Nationality": "Mozambique", "Net Profit_Estimated": 10000000, "Net Profit": null }, "geometry": { "type": "Point", "coordinates": [ 39.28052, -14.669459 ] } },
{ "type": "Feature", "properties": { "fid": 22, "ID": 22, "Name": "Correios De Mocambique", "Sector": "Transportation", "Industry": "Logistics", "Longitude": -16.552788, "Latitude": 37.017337, "Nationality": "Mozambique", "Net Profit_Estimated": 10000000, "Net Profit": null }, "geometry": { "type": "Point", "coordinates": [ 37.017337, -16.552788 ] } },
{ "type": "Feature", "properties": { "fid": 23, "ID": 23, "Name": "Correios De Mocambique", "Sector": "Transportation", "Industry": "Logistics", "Longitude": -15.750792, "Latitude": 33.633548, "Nationality": "Mozambique", "Net Profit_Estimated": 10000000, "Net Profit": null }, "geometry": { "type": "Point", "coordinates": [ 33.633548, -15.750792 ] } },
{ "type": "Feature", "properties": { "fid": 24, "ID": 24, "Name": "Correios De Mocambique", "Sector": "Transportation", "Industry": "Logistics", "Longitude": -18.875918, "Latitude": 33.391849, "Nationality": "Mozambique", "Net Profit_Estimated": 10000000, "Net Profit": null }, "geometry": { "type": "Point", "coordinates": [ 33.391849, -18.875918 ] } },
{ "type": "Feature", "properties": { "fid": 25, "ID": 25, "Name": "Correios De Mocambique", "Sector": "Transportation", "Industry": "Logistics", "Longitude": -19.415605, "Latitude": 34.907962, "Nationality": "Mozambique", "Net Profit_Estimated": 10000000, "Net Profit": null }, "geometry": { "type": "Point", "coordinates": [ 34.907962, -19.415605 ] } },
{ "type": "Feature", "properties": { "fid": 26, "ID": 26, "Name": "Correios De Mocambique", "Sector": "Transportation", "Industry": "Logistics", "Longitude": -21.61738, "Latitude": 35.347415, "Nationality": "Mozambique", "Net Profit_Estimated": 10000000, "Net Profit": null }, "geometry": { "type": "Point", "coordinates": [ 35.347415, -21.61738 ] } },
{ "type": "Feature", "properties": { "fid": 27, "ID": 27, "Name": "Correios De Mocambique", "Sector": "Transportation", "Industry": "Logistics", "Longitude": -25.972613, "Latitude": 32.572049, "Nationality": "Mozambique", "Net Profit_Estimated": 10000000, "Net Profit": null }, "geometry": { "type": "Point", "coordinates": [ 32.572049, -25.972613 ] } },
{ "type": "Feature", "properties": { "fid": 28, "ID": 28, "Name": "TCM, Lda Yard 5", "Sector": "Transportation", "Industry": "Logistics", "Longitude": -19.800806, "Latitude": 34.859431, "Nationality": "Mozambique", "Net Profit_Estimated": 10000, "Net Profit": null }, "geometry": { "type": "Point", "coordinates": [ 34.859431, -19.800806 ] } },
{ "type": "Feature", "properties": { "fid": 29, "ID": 29, "Name": "Sunline Mozambique Lda", "Sector": "Transportation", "Industry": "Logistics", "Longitude": -19.798655, "Latitude": 34.871042, "Nationality": "Mozambique", "Net Profit_Estimated": 100000, "Net Profit": null }, "geometry": { "type": "Point", "coordinates": [ 34.871042, -19.798655 ] } },
{ "type": "Feature", "properties": { "fid": 30, "ID": 30, "Name": "Mozal SARL", "Sector": "Mining", "Industry": "Alumiunm", "Longitude": -25.914309, "Latitude": 32.406414, "Nationality": "Australia", "Net Profit_Estimated": 1000000, "Net Profit": 2050000 }, "geometry": { "type": "Point", "coordinates": [ 32.406414, -25.914309 ] } },
{ "type": "Feature", "properties": { "fid": 31, "ID": 31, "Name": "E.C. Meikles (Pty) Ltd. of Zimbabwe", "Sector": "Mining", "Industry": "Bauxite", "Longitude": -19.905445, "Latitude": 33.043985, "Nationality": "Zimbabwe", "Net Profit_Estimated": -100000, "Net Profit": 3700000000 }, "geometry": { "type": "Point", "coordinates": [ 33.043985, -19.905445 ] } },
{ "type": "Feature", "properties": { "fid": 32, "ID": 32, "Name": "Cia Desenvolvimento Mineira", "Sector": "Mining", "Industry": "Bentonite", "Longitude": -26.040438, "Latitude": 32.328137, "Nationality": "Mozambique", "Net Profit_Estimated": 10000000, "Net Profit": -476000 }, "geometry": { "type": "Point", "coordinates": [ 32.328137, -26.040438 ] } },
{ "type": "Feature", "properties": { "fid": 33, "ID": 33, "Name": "Cimentos de Mozambique SARL", "Sector": "Mining", "Industry": "Cenment", "Longitude": -19.608418, "Latitude": 34.741136, "Nationality": "Portugal", "Net Profit_Estimated": 10000000, "Net Profit": 57570000 }, "geometry": { "type": "Point", "coordinates": [ 34.741136, -19.608418 ] } },
{ "type": "Feature", "properties": { "fid": 34, "ID": 34, "Name": "Cimentos de Mozambique SARL", "Sector": "Mining", "Industry": "Cenment", "Longitude": -25.920678, "Latitude": 32.465334, "Nationality": "Portugal", "Net Profit_Estimated": 10000000, "Net Profit": 51000000 }, "geometry": { "type": "Point", "coordinates": [ 32.465334, -25.920678 ] } },
{ "type": "Feature", "properties": { "fid": 35, "ID": 35, "Name": "Cimentos de Mozambique SARL", "Sector": "Mining", "Industry": "Cenment", "Longitude": -14.565108, "Latitude": 40.686878, "Nationality": "Portugal", "Net Profit_Estimated": 10000000, "Net Profit": null }, "geometry": { "type": "Point", "coordinates": [ 40.686878, -14.565108 ] } },
{ "type": "Feature", "properties": { "fid": 36, "ID": 36, "Name": "ARJ Group", "Sector": "Mining", "Industry": "Cenment", "Longitude": -14.561868, "Latitude": 40.676321, "Nationality": "USA", "Net Profit_Estimated": 100000, "Net Profit": null }, "geometry": { "type": "Point", "coordinates": [ 40.676321, -14.561868 ] } },
{ "type": "Feature", "properties": { "fid": 37, "ID": 37, "Name": "Carbomoc", "Sector": "Mining", "Industry": "Coal, bituminous", "Longitude": -16.116883, "Latitude": 33.723863, "Nationality": "Mozambique", "Net Profit_Estimated": 100000, "Net Profit": null }, "geometry": { "type": "Point", "coordinates": [ 33.723863, -16.116883 ] } },
{ "type": "Feature", "properties": { "fid": 38, "ID": 38, "Name": "Vale", "Sector": "Mining", "Industry": "Coal, bituminous", "Longitude": -16.168914, "Latitude": 33.783965, "Nationality": "Brazil", "Net Profit_Estimated": 100000000, "Net Profit": 206000000 }, "geometry": { "type": "Point", "coordinates": [ 33.783965, -16.168914 ] } },
{ "type": "Feature", "properties": { "fid": 39, "ID": 39, "Name": "Rio Tinto", "Sector": "Mining", "Industry": "Coal, bituminous", "Longitude": -16.17412, "Latitude": 33.569832, "Nationality": "Brazil", "Net Profit_Estimated": 10000000000, "Net Profit": 13638000000 }, "geometry": { "type": "Point", "coordinates": [ 33.569832, -16.17412 ] } },
{ "type": "Feature", "properties": { "fid": 40, "ID": 40, "Name": "JSPL", "Sector": "Mining", "Industry": "Coal, bituminous", "Longitude": -15.881503, "Latitude": 33.014621, "Nationality": "India", "Net Profit_Estimated": 10000000000, "Net Profit": 12291000000 }, "geometry": { "type": "Point", "coordinates": [ 33.014621, -15.881503 ] } },
{ "type": "Feature", "properties": { "fid": 41, "ID": 41, "Name": "Beacon Hill", "Sector": "Mining", "Industry": "Coal, bituminous", "Longitude": -16.152045, "Latitude": 33.661653, "Nationality": "USA", "Net Profit_Estimated": 100000, "Net Profit": null }, "geometry": { "type": "Point", "coordinates": [ 33.661653, -16.152045 ] } },
{ "type": "Feature", "properties": { "fid": 42, "ID": 42, "Name": "Fleming Family & Partners", "Sector": "Mining", "Industry": "Columbium, tantalum, ore and concentrate", "Longitude": -16.324883, "Latitude": 37.912293, "Nationality": "USA", "Net Profit_Estimated": -1000000, "Net Profit": null }, "geometry": { "type": "Point", "coordinates": [ 37.912293, -16.324883 ] } },
{ "type": "Feature", "properties": { "fid": 43, "ID": 43, "Name": "Central African Mining and Exploration Company plc (CAMEC)", "Sector": "Mining", "Industry": "Columbium, tantalum, ore and concentrate", "Longitude": -16.666256, "Latitude": 37.30656, "Nationality": "Zimbabwe", "Net Profit_Estimated": -1000000, "Net Profit": null }, "geometry": { "type": "Point", "coordinates": [ 37.30656, -16.666256 ] } },
{ "type": "Feature", "properties": { "fid": 44, "ID": 44, "Name": "Hegemony Resources", "Sector": "Mining", "Industry": "Columbium, tantalum, ore and concentrate", "Longitude": -15.745716, "Latitude": 38.271386, "Nationality": "Mozambique", "Net Profit_Estimated": -100000, "Net Profit": null }, "geometry": { "type": "Point", "coordinates": [ 38.271386, -15.745716 ] } },
{ "type": "Feature", "properties": { "fid": 45, "ID": 45, "Name": "Artisanal Miners", "Sector": "Mining", "Industry": "Gold", "Longitude": -18.930926, "Latitude": 32.859944, "Nationality": "Mozambique", "Net Profit_Estimated": 100000, "Net Profit": null }, "geometry": { "type": "Point", "coordinates": [ 32.859944, -18.930926 ] } },
{ "type": "Feature", "properties": { "fid": 46, "ID": 46, "Name": "Sociedade Mineira de Cuamba EE", "Sector": "Mining", "Industry": "Garnet", "Longitude": -14.803635, "Latitude": 36.51495, "Nationality": "Mozambique", "Net Profit_Estimated": -100000, "Net Profit": null }, "geometry": { "type": "Point", "coordinates": [ 36.51495, -14.803635 ] } },
{ "type": "Feature", "properties": { "fid": 47, "ID": 47, "Name": "Kenmare Resources plc", "Sector": "Mining", "Industry": "Graphite & Heavy Sand", "Longitude": -16.397465, "Latitude": 39.237542, "Nationality": "Ireland", "Net Profit_Estimated": 10000000, "Net Profit": 50900000 }, "geometry": { "type": "Point", "coordinates": [ 39.237542, -16.397465 ] } },
{ "type": "Feature", "properties": { "fid": 48, "ID": 48, "Name": "African Great Wall Mining Development Company", "Sector": "Mining", "Industry": "Graphite & Heavy Sand", "Longitude": -17.597946, "Latitude": 36.814467, "Nationality": "China", "Net Profit_Estimated": -1000000, "Net Profit": -3530000 }, "geometry": { "type": "Point", "coordinates": [ 36.814467, -17.597946 ] } },
{ "type": "Feature", "properties": { "fid": 49, "ID": 49, "Name": "African Great Wall Mining Development Company", "Sector": "Mining", "Industry": "Graphite & Heavy Sand", "Longitude": -18.066029, "Latitude": 36.809317, "Nationality": "China", "Net Profit_Estimated": -1000000, "Net Profit": -3530000 }, "geometry": { "type": "Point", "coordinates": [ 36.809317, -18.066029 ] } },
{ "type": "Feature", "properties": { "fid": 50, "ID": 50, "Name": "African Great Wall Mining Development Company", "Sector": "Mining", "Industry": "Graphite & Heavy Sand", "Longitude": -18.583226, "Latitude": 36.462421, "Nationality": "China", "Net Profit_Estimated": -1000000, "Net Profit": -3530000 }, "geometry": { "type": "Point", "coordinates": [ 36.462421, -18.583226 ] } },
{ "type": "Feature", "properties": { "fid": 51, "ID": 51, "Name": "Haiyu Mozambique Mining Company", "Sector": "Mining", "Industry": "Graphite & Heavy Sand", "Longitude": -16.359962, "Latitude": 37.762284, "Nationality": "China", "Net Profit_Estimated": -1000000, "Net Profit": null }, "geometry": { "type": "Point", "coordinates": [ 37.762284, -16.359962 ] } },
{ "type": "Feature", "properties": { "fid": 52, "ID": 52, "Name": "Haiyu Mozambique Mining Company", "Sector": "Mining", "Industry": "Graphite & Heavy Sand", "Longitude": -15.945833, "Latitude": 40.104722, "Nationality": "China", "Net Profit_Estimated": -1000000, "Net Profit": null }, "geometry": { "type": "Point", "coordinates": [ 40.104722, -15.945833 ] } },
{ "type": "Feature", "properties": { "fid": 53, "ID": 53, "Name": "Anhui Foreign Economic Construction Corporation (AFECC)", "Sector": "Mining", "Industry": "Graphite & Heavy Sand", "Longitude": -24.709064, "Latitude": 33.540659, "Nationality": "China", "Net Profit_Estimated": 100000000, "Net Profit": 234800000 }, "geometry": { "type": "Point", "coordinates": [ 33.540659, -24.709064 ] } },
{ "type": "Feature", "properties": { "fid": 54, "ID": 54, "Name": "Marmonte E.E.", "Sector": "Mining", "Industry": "Marble, block", "Longitude": -13.11954, "Latitude": 39.023877, "Nationality": "Mozambique", "Net Profit_Estimated": -100000, "Net Profit": null }, "geometry": { "type": "Point", "coordinates": [ 39.023877, -13.11954 ] } },
{ "type": "Feature", "properties": { "fid": 55, "ID": 55, "Name": "Sasol Ltd.", "Sector": "Mining", "Industry": "Natural gas", "Longitude": -23.875002, "Latitude": 35.395206, "Nationality": "South Africa", "Net Profit_Estimated": 1000000000, "Net Profit": 2983000000 }, "geometry": { "type": "Point", "coordinates": [ 35.395206, -23.875002 ] } },
{ "type": "Feature", "properties": { "fid": 56, "ID": 56, "Name": "Hydroelectrica Cahora Bassa (HCB)", "Sector": "Mining", "Industry": "Electricity generation", "Longitude": -15.600631, "Latitude": 32.75227, "Nationality": "Mozambique", "Net Profit_Estimated": 10000000, "Net Profit": 71600000 }, "geometry": { "type": "Point", "coordinates": [ 32.75227, -15.600631 ] } },
{ "type": "Feature", "properties": { "fid": 57, "ID": 57, "Name": "Wentworth Resources", "Sector": "Mining", "Industry": "Natural gas", "Longitude": -12.886575, "Latitude": 40.391506, "Nationality": "UK", "Net Profit_Estimated": 10000000, "Net Profit": 16700000 }, "geometry": { "type": "Point", "coordinates": [ 40.391506, -12.886575 ] } },
{ "type": "Feature", "properties": { "fid": 58, "ID": 58, "Name": "Anadarko", "Sector": "Mining", "Industry": "Natural gas", "Longitude": -11.759875, "Latitude": 40.620136, "Nationality": "USA", "Net Profit_Estimated": 100000000, "Net Profit": 752000000 }, "geometry": { "type": "Point", "coordinates": [ 40.620136, -11.759875 ] } },
{ "type": "Feature", "properties": { "fid": 59, "ID": 59, "Name": "Mozambique Rovuma Venture", "Sector": "Mining", "Industry": "Natural gas", "Longitude": -11.575157, "Latitude": 40.980247, "Nationality": "Mozambique", "Net Profit_Estimated": 1000000, "Net Profit": 8640000 }, "geometry": { "type": "Point", "coordinates": [ 40.980247, -11.575157 ] } },
{ "type": "Feature", "properties": { "fid": 60, "ID": 60, "Name": "Statoll", "Sector": "Mining", "Industry": "Natural gas", "Longitude": -12.875385, "Latitude": 40.602993, "Nationality": "Norwey", "Net Profit_Estimated": 1000000000, "Net Profit": 1840000000 }, "geometry": { "type": "Point", "coordinates": [ 40.602993, -12.875385 ] } },
{ "type": "Feature", "properties": { "fid": 61, "ID": 61, "Name": "Statoll", "Sector": "Mining", "Industry": "Natural gas", "Longitude": -12.748432, "Latitude": 41.108427, "Nationality": "Norwey", "Net Profit_Estimated": 1000000000, "Net Profit": 1840000000 }, "geometry": { "type": "Point", "coordinates": [ 41.108427, -12.748432 ] } },
{ "type": "Feature", "properties": { "fid": 62, "ID": 62, "Name": "Petronas", "Sector": "Mining", "Industry": "Natural gas", "Longitude": -13.326125, "Latitude": 40.597657, "Nationality": "Malaysia", "Net Profit_Estimated": 10000000, "Net Profit": 26500000 }, "geometry": { "type": "Point", "coordinates": [ 40.597657, -13.326125 ] } }
]
}
